[
  {
    "type":"Bonus Jury",
    "address":"41110 Saint-Aignan-sur-Cher",
    "lat":47.252129,
    "lgt":1.353723,
    "name":"Zoo de Beauval",
    "site":"http://zoobeauval.com",
    "tel":"02 54 75 50 00"
  },
  {
    "type":"Bonus Jury",
    "address":"20 Place Gaston Paillhou, 37000 Tours",
    "lat":47.395586,
    "lgt":0.680735,
    "name":"In Extenso",
    "site":"http://inextenso.fr",
    "tel":"09 83 00 27 03"
  },
  {
    "type":"Bonus Jury",
    "address":"59 Rue Néricault Destouches, 37041 Tours",
    "lat":47.39219,
    "lgt":0.682336,
    "name":"Centre d'Etudes supérieures du Patrimoine et de la Renaissance",
    "site":"cesr.univ-tours.fr",
    "tel":"02 47 36 77 61"
  },
  {
    "type":"Bonus Jury",
    "address":"4 Bis Rue Jules Favre, 37000 Tours",
    "lat":47.395475,
    "lgt":0.687932,
    "name":"CCI Touraine",
    "site":"http://touraine.cci.fr",
    "tel":"02 47 47 20 00"
  },
  {
    "type":"Bonus Jury",
    "address":"La Grange David, 37520 La Riche",
    "lat":47.375637,
    "lgt":0.646751,
    "name":"Centre d'Agglomération Tours Plus",
    "site":"agglo-tours.fr",
    "tel":"02 47 38 43 65"
  },
  {
    "type":"Bonus Jury",
    "address":"Place de la Préfecture, 37000 Tours",
    "lat":47.39326,
    "lgt":0.691325,
    "name":"Agence Départementale du Tourisme en Touraine",
    "site":"http://touraineloirevalley.com",
    "tel":"02 47 70 37 37"
  },
  {
    "type":"Bonus Jury",
    "address":"121 Boulevard Charles de Gaulle, 37540 Saint-Cyr-sur-Loire\n\n\n\n",
    "lat":47.414307,
    "lgt":0.670871,
    "name":"Crédit Agricole de la Touraine et du Poitou",
    "site":"ca-tourainepoitou.fr",
    "tel":"02 47 42 65 88"
  },
  {
    "type":"Bonus Jury",
    "address":"Route de Paris Centre Commercial, 37100 Tours",
    "lat":47.427342,
    "lgt":0.699961,
    "name":"Orange Tours",
    "site":"http://orange.fr",
    "tel":"02 47 36 00 90"
  }
]