 [
  {
  "type": "Restauration",
  "address": "19 Place des Halles, 37000 Tours",
  "lat": 47.392844,
  "lgt": 0.679955,
  "name": "La maison des Halles",
  "site": "http://maisondeshalles.com",
  "tel": "",
  "file": "1"
  },
  {
  "type": "Restauration",
  "address": "33 Rue Colbert, 37000 Tours",
  "lat": 47.39576,
  "lgt": 0.688321,
  "name": "L’Evidence",
  "site": "restaurant-levidence.com",
  "tel": "",
  "file": "1"
  },
  {
  "type": "Restauration",
  "address": "4 Place Plumereau, 37000 Tours",
  "lat": 47.394466,
  "lgt": 0.682042,
  "name": "Le Café Marcel",
  "site": "http://www.lecafemarcel.com/",
  "tel": "",
  "file": "1"
  },
  {
  "type": "Restauration",
  "address": "94 Rue Colbert, 37000 Tours",
  "lat": 47.396319,
  "lgt": 0.691371,
  "name": "Le Turon",
  "site": "http://",
  "tel": "02 47 66 14 25",
  "file": "1"
  },
  {
  "type": "Restauration",
  "address": "21 Place des Halles, 37000 Tours",
  "lat": 47.392291,
  "lgt": 0.679882,
  "name": "Café d’Isa",
  "site": "http://",
  "tel": "02 47 38 61 61",
  "file": "1"
  },
  {
  "type": "Restauration",
  "address": "7 Route du Moulin Bleu, 37140 Bourgueil",
  "lat": 47.300511,
  "lgt": 0.164942,
  "name": "Moulin Bleu",
  "site": "http://lemoulinbleu.com",
  "tel": "02 47 97 73 13",
  "file": "1"
  },
  {
  "type": "Restauration",
  "address": "3 Rue Buffon, 37000 Tours",
  "lat": 47.393561,
  "lgt": 0.690437,
  "name": "Nobuki",
  "site": "http://nobuki.fr",
  "tel": "02 47 05 79 79",
  "file": "1"
  },
  {
  "type": "Restauration",
  "address": "13 Rue du Commerce, 37000 Tours",
  "lat": 47.395477,
  "lgt": 0.685523,
  "name": "Bagels & coffee",
  "site": "http://alexlemetais.wix.com",
  "tel": "06 76 69 49 26",
  "file": "1"
  },
  {
  "type": "Restauration",
  "address": "3 Avenue de Grammont, 37000 Tours",
  "lat": 47.388605,
  "lgt": 0.689347,
  "name": "Mao",
  "site": "http://restaurantmao.fr",
  "tel": "",
  "file": "1"
  },
  {
  "type": "Restauration",
  "address": "27 Rue Blaise Pascal 37000 Tours",
  "lat": 47.388698,
  "lgt": 0.693089,
  "name": "Zen",
  "site": "http://",
  "tel": "02 47 66 70 84",
  "file": "1"
  },
  {
  "type": "Restauration",
  "address": "26, rue Colbert 37000 Tours",
  "lat": 47.395864,
  "lgt": 0.688107,
  "name": "L'Arôme Restaurant",
  "site": "http://",
  "tel": "02 47 05 99 81",
  "file": "1"
  },
  {
  "type": "Restauration",
  "address": "7 Rue de la Grosse Tour, 37000 Tours",
  "lat": 47.394516,
  "lgt": 0.678894,
  "name": "Zafferano",
  "site": "http://",
  "tel": "02 47 38 90 77",
  "file": "1"
  },
  {
  "type": "Restauration",
  "address": "23 Rue du Commerce, 37000 Tours",
  "lat": 47.395381,
  "lgt": 0.684896,
  "name": "Bistro des Belles Caves",
  "site": "http://lesbellescaves.com",
  "tel": "02 47 05 71 21",
  "file": "1"
  },
  {
  "type": "Restauration",
  "address": "Lieu-dit le Moulin Fleuri, 37250 Veigné",
  "lat": 47.286631,
  "lgt": 0.687083,
  "name": "Hôtel Le Moulin Fleuri",
  "site": "moulin-fleuri.com",
  "tel": "02 47 26 01 12",
  "file": "1"
  },
  {
  "type": "Restauration",
  "address": "30 bis rue de Vaufoynard 37210 Rochecorbon",
  "lat": 47.418184,
  "lgt": 0.750196,
  "name": "Domaine BOURILLON-DORLEANS - Vouvray",
  "site": "http://www.bourillon.com/le-domaine.html",
  "tel": "02 47 52 83 07",
  "file": "1"
  }
  ]